time_sec,altitude_agl_ft,altitude_msl_ft,airspeed_kt,groundspeed_kt,vertical_speed_fpm,pitch_deg,roll_deg,yaw_deg,throttle,elevator,aileron,rudder,engine_rpm,fuel_flow
0.01,3.532388826010311e-06,3.5353004932403564e-06,7.690058236179356,0.0015357296282058597,778.7613500704952,-7.361396442417955e-12,-9.541667456147269e-15,7.951389546789577e-15,1.0,0.0,0.0,0.0,0.0,0.0
0.10999999999999999,2.4707687431606127,2.4707816392183304,16.14658963882895,1.362936790604459,1629.36603068923,-22.910611557971492,1.6326179937880927,359.6124018534707,1.0,0.0,0.0,0.0,0.0,0.0
0.21000000000000005,5.013640743068522,5.013666924089193,14.254670345914004,2.589492942036453,1419.639615500586,-46.35799805319353,3.840289193772802,358.1466601387109,1.0,0.0,0.0,0.0,0.0,0.0
0.3100000000000001,7.198458876119679,7.1984964571893215,12.401075329280971,3.6327174748215123,1200.886819783961,-68.18406916145487,9.340062864037158,353.24417162673427,1.0,0.0,0.0,0.0,0.0,0.0
0.4100000000000002,9.013383488871941,9.013430546969175,10.618837619449954,4.453443576444562,976.3694993417128,-85.98920829032448,76.84108219149392,286.2902714770424,1.0,0.0,0.0,0.0,0.0,0.0
0.5100000000000002,10.451838144340746,10.451892707496881,8.958498277180649,5.047020817154435,749.707993955479,-71.11439113514345,167.52939649724044,196.1412674051159,1.0,0.0,0.0,0.0,0.0,0.0
0.6100000000000003,11.512976021280025,11.513036128133535,7.5021473308555064,5.433581902660227,524.0332707160842,-53.0414830915767,173.64908037234497,190.5727134379355,1.0,0.0,0.0,0.0,0.0,0.0
0.7100000000000004,12.200301276605394,12.200364973396063,6.384040357649307,5.649432995296689,301.33919388395555,-35.66643359793856,175.8282943049065,188.96869861052278,1.0,0.0,0.0,0.0,0.0,0.0
0.8100000000000005,12.519314382309993,12.519379742443562,5.791934420391424,5.73619591980589,81.95092481459288,-18.881402999350346,177.03717227447692,188.3750290260745,1.0,0.0,0.0,0.0,0.0,0.0
0.9100000000000006,12.474475312379282,12.474540438503027,5.877884072070344,5.724273714556037,-135.6714796181882,-2.56530769763491,177.87523336725422,188.2232985276464,1.0,0.0,0.0,0.0,0.0,0.0
1.0100000000000007,12.06664515494683,12.066708147525787,6.613817475202304,5.615610733740019,-354.04876805931195,13.31218605066663,178.56630610112256,188.3528848793568,1.0,0.0,0.0,0.0,0.0,0.0
1.1100000000000008,11.292811189216241,11.29287014901638,7.822428466247967,5.3816359295363,-575.0827875194366,28.679177029848553,179.25866611306625,188.74433662701549,1.0,0.0,0.0,0.0,0.0,0.0
1.2100000000000009,10.14792386539281,10.147976841777563,9.327530617896391,4.973595093023458,-799.2654247531129,43.37603790354882,-179.86164101314586,189.49060458437683,1.0,0.0,0.0,0.0,0.0,0.0
1.310000000000001,8.627426275458967,8.627471312880516,11.012600328121337,4.331846492293593,-1025.481898024188,57.16208258114476,-178.4162339805727,190.90261482619005,1.0,0.0,0.0,0.0,0.0,0.0
1.410000000000001,7.703422679663582,7.703462895005941,6.6467913943445325,3.973100777196345,-539.7176687943748,50.7912028524291,-177.8243358664877,191.54014345813005,1.0,0.0,0.0,0.0,0.0,0.0
1.5100000000000011,6.631256518647202,6.631291136145592,8.26728295937285,3.7425713170430153,-746.6071134139756,38.52058492397301,-177.69582013034727,191.65527351270936,1.0,0.0,0.0,0.0,0.0,0.0
1.6100000000000012,5.214107920804698,5.214135143905878,10.01484538688339,3.4025513251310784,-953.9430549723895,26.55892507862765,-177.49619859956343,191.71881928353895,1.0,0.0,0.0,0.0,0.0,0.0
1.7100000000000013,3.4518818980051633,3.4518999196588993,11.832709923016631,2.950545042892677,-1160.4932368020914,15.029477092278222,-177.2214545094276,191.71882377034333,1.0,0.0,0.0,0.0,0.0,0.0
1.8100000000000014,2.159427952487418,2.159439228475094,1.3445160018631128,1.3444650483548075,1.609048757004763,5.113052936516763,-179.40452303227312,190.39653247308843,1.0,0.0,0.0,0.0,0.0,0.0
1.9100000000000015,8.988889525249428,8.988936454057693,57.4639431007572,5.870359282196303,5789.615216258911,8.352503312271386,-150.23424667545257,192.49155223075726,1.0,0.0,0.0,0.0,0.0,0.0
2.010000000000001,21.89375194062806,21.89386624842882,76.34559769085745,18.276302112203656,7509.151476905371,38.00631091488132,-158.6292548979716,199.73683008407633,1.0,0.0,0.0,0.0,0.0,0.0
2.109999999999999,34.089587409369116,34.08976538479328,74.08889920751396,22.102312466292524,7165.1453011877475,71.92706206080871,-176.32192687803422,190.81634473422756,1.0,0.0,0.0,0.0,0.0,0.0
2.209999999999997,45.93348258362903,45.933722387999296,72.13785520767877,18.634248170306833,7062.429640841201,77.82227441606618,65.15484549072546,72.22302981242262,1.0,0.0,0.0,0.0,0.0,0.0
2.3099999999999947,57.64080437612798,57.64110530167818,70.0867535138776,12.913290382490134,6982.148236988942,60.24499135800941,50.56976465052724,54.491903544408615,1.0,0.0,0.0,0.0,0.0,0.0
2.4099999999999926,69.17918599439864,69.17954715713859,67.94953397069204,6.863751972524145,6852.940577576235,46.77699867675187,54.04255796013192,53.91932044898646,1.0,0.0,0.0,0.0,0.0,0.0
2.5099999999999905,80.4461103347246,80.44653031602502,65.75034879396648,3.5292177756610306,6656.677558889534,36.28864444733606,59.96510658962062,56.10973064978337,1.0,0.0,0.0,0.0,0.0,0.0
2.6099999999999883,91.33814051929645,91.3386173658073,63.515763813343085,6.506043300196812,6406.94386865718,27.559261639651353,66.09972196831947,59.38893477530093,1.0,0.0,0.0,0.0,0.0,0.0
2.709999999999986,101.78801993700313,101.78855134174228,61.267638874096725,9.972544351180714,6131.094722647359,19.84795290434529,71.73381830792307,63.173027230022264,1.0,0.0,0.0,0.0,0.0,0.0
2.809999999999984,111.77690407134897,111.77748762071133,59.01992696965125,12.174839028618216,5858.292551695595,12.73226182704966,76.62336759466734,67.01002091474562,1.0,0.0,0.0,0.0,0.0,0.0
2.909999999999982,121.33082762451016,121.33146105706692,56.779624897308665,12.736661645711202,5613.9241127196865,5.967363528205554,80.78694951925809,70.24592565160667,1.0,0.0,0.0,0.0,0.0,0.0
3.00999999999998,130.50840167492635,130.50908301398158,54.438682716092124,11.546018126316655,5398.27163856018,-0.5665799824998204,84.76854174627685,71.93681417898645,1.0,0.0,0.0,0.0,0.0,0.0
3.1099999999999777,139.30984826551835,139.31057555228472,52.05195183098769,11.302406605537694,5156.463781316582,-6.852056312743427,89.60913773137334,70.58786846856593,1.0,0.0,0.0,0.0,0.0,0.0
3.2099999999999755,147.6542878633508,147.65505871921778,49.74578799969966,14.11021775411384,4842.128981505832,-12.324725954101323,96.44409786086804,63.55241826090519,1.0,0.0,0.0,0.0,0.0,0.0
3.3099999999999734,155.40947536957648,155.41028671711683,47.533317889390354,18.27254460488638,4455.608434534217,-15.252635009856824,106.34673022751629,49.89601926972556,1.0,0.0,0.0,0.0,0.0,0.0
3.4099999999999713,162.49050986129708,162.49135817214847,45.44460202074608,21.98216622522158,4040.3891206957833,-13.474243975278753,118.44170664429424,31.87754088380091,1.0,0.0,0.0,0.0,0.0,0.0
3.509999999999969,168.88252428107927,168.8834059610963,43.49231152668739,24.76453950602898,3633.9242749627315,-6.1787138955989,130.04429555926853,13.173678160066329,1.0,0.0,0.0,0.0,0.0,0.0
3.609999999999967,174.62187847489602,174.62279011681676,41.675529646678335,26.635909489948517,3259.953009419211,5.4796175277371395,139.00561435071296,356.21850565797405,1.0,0.0,0.0,0.0,0.0,0.0
3.709999999999965,179.77294266416226,179.7738811969757,39.98483855983758,27.76416452283538,2928.6890211782325,19.538919658962094,144.71004252052185,341.2778882874328,1.0,0.0,0.0,0.0,0.0,0.0
3.8099999999999627,184.40808479021393,184.40904752537608,38.40724756320188,28.343223688431102,2640.289837466072,34.32323688166764,147.09786942091725,327.31751814879954,1.0,0.0,0.0,0.0,0.0,0.0
3.9099999999999606,188.59498122509999,188.5959658175707,36.92980557129277,28.53885746490247,2389.787359874067,48.658436685731374,145.5040755847519,312.46549405420006,1.0,0.0,0.0,0.0,0.0,0.0
4.009999999999959,192.39182809668358,192.39283251017332,35.54128929286739,28.470501142607503,2171.3650735461765,61.52087707286579,137.21010603909764,293.06312951459694,1.0,0.0,0.0,0.0,0.0,0.0
4.109999999999957,195.8479132500931,195.8489357046783,34.22775951301767,28.212675499386126,1980.097795873905,70.96467943121195,114.49351478526702,260.7298974880768,1.0,0.0,0.0,0.0,0.0,0.0
4.209999999999955,199.0057912772159,199.0068302191794,32.98844637191631,27.82028902802488,1813.3148307703784,72.5347644346471,74.41271210289132,212.06057398066378,1.0,0.0,0.0,0.0,0.0,0.0
4.3099999999999525,201.9044073066314,201.90546137467027,31.81490162876139,27.328563585592647,1668.1236649786706,65.75641140181372,46.20718816060523,175.9566347840732,1.0,0.0,0.0,0.0,0.0,0.0
4.40999999999995,204.57453899064834,204.57560700178146,30.699447091758408,26.785831041159234,1537.9316305501898,55.815055906869205,34.03700014899345,156.31654694459402,1.0,0.0,0.0,0.0,0.0,0.0
4.509999999999948,207.03505707462202,207.03613793104887,29.639803111450487,26.239976760286474,1415.3019108321846,45.1643320825921,28.796496707932693,143.82255936539903,1.0,0.0,0.0,0.0,0.0,0.0
4.609999999999946,209.29230245846324,209.29339510202408,28.63800980779059,25.732906034418768,1292.8807356286343,34.56494936924026,26.604600939391545,134.4137274061298,1.0,0.0,0.0,0.0,0.0,0.0
4.709999999999944,211.34070653308135,211.34180986881256,27.697820975901376,25.298397651832182,1163.1378909308194,24.346366481317354,26.014062092135273,126.48769096697336,1.0,0.0,0.0,0.0,0.0,0.0
4.809999999999942,213.16248142434105,213.16359427571297,26.820047315104805,24.943208934449252,1021.0236084811966,14.718503274361133,26.426251220458436,119.31081412093613,1.0,0.0,0.0,0.0,0.0,0.0
4.90999999999994,214.73795829822674,214.7390793710947,26.03130919431802,24.66693519762238,867.8678423134521,5.835965424913327,27.56665423573217,112.4961979962073,1.0,0.0,0.0,0.0,0.0,0.0
5.009999999999938,216.05019887190028,216.05132680013776,25.359850910214245,24.468013139485272,705.3895881309542,-2.189379599779706,29.288490087158,105.82114022899418,1.0,0.0,0.0,0.0,0.0,0.0
5.1099999999999355,217.08470266177133,217.08583598956466,24.817717022067928,24.33014344335051,534.8069210228971,-9.280896726122677,31.498080427965597,99.15932088059658,1.0,0.0,0.0,0.0,0.0,0.0
5.209999999999933,217.8289193202256,217.83005653694272,24.417683843225507,24.24105426407387,356.7285493140691,-15.392462372564397,34.1188345020124,92.45368837997134,1.0,0.0,0.0,0.0,0.0,0.0
5.309999999999931,218.2679509517308,218.26909045502543,24.16828256540324,24.188450505096352,168.51261384706203,-20.511637252929056,37.07812242236012,85.70076427386638,1.0,0.0,0.0,0.0,0.0,0.0
5.409999999999929,218.38594330121785,218.3870834223926,24.07577246534906,24.15125775814579,-28.13668896749692,-24.658517143554235,40.30428438750627,78.93838852400617,1.0,0.0,0.0,0.0,0.0,0.0
5.509999999999927,218.17064387763295,218.17178287357092,24.1438538848564,24.113303687988875,-231.13291952872027,-27.87786667887306,43.69343641580112,72.2403292398163,1.0,0.0,0.0,0.0,0.0,0.0
5.609999999999925,217.61287381619132,217.61400990188122,24.373175653059448,24.06385490909001,-438.8451876989002,-30.23524648739477,47.116194261455384,65.70745214797786,1.0,0.0,0.0,0.0,0.0,0.0
5.709999999999923,216.7068310017755,216.7079623527825,24.76186210743008,24.00094173545608,-648.4881089667406,-31.811427913713683,50.44329780023486,59.4533020131299,1.0,0.0,0.0,0.0,0.0,0.0
5.809999999999921,215.4511176333686,215.45224243029952,25.30345829461426,23.926290810921973,-858.38755431183,-32.699882484683634,53.53877810173572,53.59663737754162,1.0,0.0,0.0,0.0,0.0,0.0
5.909999999999918,213.84547143418186,213.84658785164356,25.988632054395293,23.839868807832207,-1068.423116402424,-33.00711774665919,56.277624334714645,48.23968717897772,1.0,0.0,0.0,0.0,0.0,0.0
6.009999999999916,211.88967112262392,211.8907773308456,26.80676083411184,23.742024453930362,-1278.5110977432626,-32.8432313952114,58.57370645121843,43.448721656871214,1.0,0.0,0.0,0.0,0.0,0.0
6.109999999999914,209.58412680182084,209.5852209739387,27.740901187579297,23.630607856254745,-1487.949597823109,-32.313113904573406,60.37989440924865,39.2534355406121,1.0,0.0,0.0,0.0,0.0,0.0
6.209999999999912,206.93065862143678,206.93173893913627,28.77398606057966,23.505709731456236,-1695.9190499362462,-31.508782427885496,61.67878462848565,35.656844365230974,1.0,0.0,0.0,0.0,0.0,0.0
6.30999999999991,203.9320960224075,203.9331606850028,29.893652320828803,23.371293435010934,-1902.0236757952093,-30.51096609957196,62.476707634055195,32.63683390418669,1.0,0.0,0.0,0.0,0.0,0.0
6.409999999999908,200.5918569300769,200.59290415421128,31.08814180510203,23.232575988678295,-2105.8264904049743,-29.391421407434763,62.797246624783604,30.148892081650867,1.0,0.0,0.0,0.0,0.0,0.0
6.509999999999906,196.91427484878065,196.91530288010836,32.34643572837065,23.096752351332366,-2306.786665537502,-28.213978767950017,62.67607634176761,28.132112177221472,1.0,0.0,0.0,0.0,0.0,0.0
6.6099999999999035,192.9053618869051,192.90636898949742,33.659067753595394,22.99088844709666,-2502.716607889155,-27.02764923527346,62.17693016756544,26.513630324666696,1.0,0.0,0.0,0.0,0.0,0.0
6.709999999999901,188.57624678833417,188.57723128795624,35.01513455992962,22.95300323156804,-2690.7777774226156,-25.866135611169476,61.381147299692586,25.222915551308628,1.0,0.0,0.0,0.0,0.0,0.0
6.809999999999899,183.94134467480168,183.9423049762845,36.401289102979035,23.007757851163404,-2869.399267483376,-24.761590508048336,60.364954829343894,24.189441463797685,1.0,0.0,0.0,0.0,0.0,0.0
6.909999999999897,179.01768425156965,179.0186188481748,37.804313001695775,23.178984755111017,-3037.052072270076,-23.74930338299193,59.19080902730083,23.341894482780997,1.0,0.0,0.0,0.0,0.0,0.0
7.009999999999895,173.8245967256021,173.82550420984626,39.21193695986512,23.485083022144366,-3192.554050473943,-22.86854718399023,57.9021835326206,22.61216348327048,1.0,0.0,0.0,0.0,0.0,0.0
7.109999999999893,168.3829744809071,168.38385355472565,40.61380175616481,23.936836205478055,-3335.1848974665745,-22.161057278989375,56.53631500565783,21.940201115051504,1.0,0.0,0.0,0.0,0.0,0.0
7.209999999999891,162.7154784483292,162.71632793545723,42.00203293615471,24.55082218152735,-3463.6853668946555,-21.66656762503065,55.126807717664576,21.28084862247401,1.0,0.0,0.0,0.0,0.0,0.0
7.309999999999889,156.84383274934655,156.84465158730745,43.3718402609028,25.292950647674964,-3580.4283589117704,-21.41706411364715,53.703299694102896,20.609199189226462,1.0,0.0,0.0,0.0,0.0,0.0
7.4099999999998865,150.78663250401323,150.7874197103083,44.72122819733923,26.145455195874497,-3686.566121179385,-21.434717454000673,52.28396133732562,19.918508095041215,1.0,0.0,0.0,0.0,0.0,0.0
7.509999999999884,144.56026236067171,144.56101706251502,46.05034529431451,27.084812013330197,-3783.7450215302947,-21.72765260589667,50.87715485065591,19.222055421560377,1.0,0.0,0.0,0.0,0.0,0.0
7.609999999999882,138.17805183882163,138.17877322807908,47.3607968476537,28.08513081506845,-3873.90240980976,-22.28935208728276,49.482721769211366,18.54985982667163,1.0,0.0,0.0,0.0,0.0,0.0
7.70999999999988,131.65009038367734,131.65077769383788,48.65483773354787,29.1223672512961,-3958.9511365954,-23.100382829274405,48.09312998083236,17.94376330531643,1.0,0.0,0.0,0.0,0.0,0.0
7.809999999999878,124.983462846343,124.9841153472662,49.93469395596214,30.17714326916398,-4040.525456727072,-24.13175612219508,46.694455444557605,17.452072287575763,1.0,0.0,0.0,0.0,0.0,0.0
7.909999999999876,118.18298420461717,118.18360120430589,51.202244561611955,31.23731795943429,-4119.73946365137,-25.348622767390598,45.26728906506322,17.125092891729974,1.0,0.0,0.0,0.0,0.0,0.0
8.009999999999874,111.25182263708899,111.25240345671773,52.45935468954925,32.29470674436898,-4197.452967554596,-26.713801725294275,43.787835855467215,17.011708625964673,1.0,0.0,0.0,0.0,0.0,0.0
8.109999999999872,104.19131933293038,104.19186328351498,53.70708056568673,33.328815094863366,-4275.446874338194,-28.19090523194261,42.22833681152123,17.156673955024583,1.0,0.0,0.0,0.0,0.0,0.0
8.20999999999987,96.9996688699457,97.00017527863383,54.946757295279184,34.33234733558885,-4354.553058332209,-29.749433507774274,40.55691583413721,17.596132840594603,1.0,0.0,0.0,0.0,0.0,0.0
8.309999999999867,89.67673678269176,89.67720495536923,56.179415292300824,35.33273182202616,-4432.745632776498,-31.36360853968807,38.74049544255033,18.360513018842838,1.0,0.0,0.0,0.0,0.0,0.0
8.409999999999865,82.22461664328931,82.22504591569304,57.40592090169199,36.337094110765015,-4509.555888554386,-33.00724709556399,36.746267062129036,19.47978859373625,1.0,0.0,0.0,0.0,0.0,0.0
8.509999999999863,74.64574083094578,74.64613053202629,58.627515241636814,37.349181747467114,-4584.822653508673,-34.653764288784004,34.54079732109497,20.98271605345389,1.0,0.0,0.0,0.0,0.0,0.0
8.60999999999986,66.94283103913766,66.94318053126335,59.845496306190995,38.37289507301253,-4658.368134476729,-36.27546962290679,32.090916082399914,22.896692759714693,1.0,0.0,0.0,0.0,0.0,0.0
8.709999999999859,59.118888548749226,59.11919719725847,61.061266177354895,39.41184910350493,-4730.040435854669,-37.84241967825411,29.364782367085073,25.247472810402186,1.0,0.0,0.0,0.0,0.0,0.0
8.809999999999857,51.17712832707279,51.17739550769329,62.276294463104314,40.469074444504685,-4799.7353294186505,-39.32131627069896,26.33341686888362,28.0581280461334,1.0,0.0,0.0,0.0,0.0,0.0
8.909999999999854,43.120897988906925,43.12112310528755,63.49208166842911,41.54689566524375,-4867.404209727897,-40.67452057822485,22.972954282279876,31.34703344047751,1.0,0.0,0.0,0.0,0.0,0.0
9.009999999999852,34.95355564812878,34.95373813062906,64.71055219827193,42.647383144847865,-4933.070023667753,-41.858984864500286,19.272365529086276,35.122949966068575,1.0,0.0,0.0,0.0,0.0,0.0
9.10999999999985,26.678440814706207,26.678580090403557,65.93378195813794,43.772811869326716,-4996.751583508583,-42.814515562078256,15.32365240134622,39.34447742644381,1.0,0.0,0.0,0.0,0.0,0.0
9.209999999999848,18.298674718061243,18.298770248889923,67.16518897095604,44.92511479646383,-5058.6744690912055,-43.47778373354546,11.314310573837147,43.90426975716477,1.0,0.0,0.0,0.0,0.0,0.0
9.309999999999846,9.817390985542618,9.817442242056131,68.40978865731606,46.11676924450222,-5118.3078035571625,-43.81129138559073,7.44096660078618,48.65912061696915,1.0,0.0,0.0,0.0,0.0,0.0
9.409999999999844,2.535260876869485,2.5352741107344627,52.26052970777065,45.47030708827599,-2609.150936194371,-40.4074419653205,8.185739834219321,50.87891824112084,1.0,0.0,0.0,0.0,0.0,0.0
9.509999999999842,1.3214302736684829,1.321437168866396,44.523030159181396,44.13831435087324,592.1162769907717,-20.986716289811653,8.82806672285653,51.55316402576092,1.0,0.0,0.0,0.0,0.0,0.0
9.60999999999984,2.972223022351586,2.972238540649414,45.61465363541082,44.40396723086009,1058.0816130439084,-16.05283038320979,1.9566097886715832,54.25860488580913,1.0,0.0,0.0,0.0,0.0,0.0
9.709999999999837,4.39457859752507,4.394601538777351,45.22009527772598,44.75592630149792,656.5143605048232,-14.08229628242422,-3.2485976666174143,56.25364170207202,1.0,0.0,0.0,0.0,0.0,0.0
9.809999999999835,5.188402708535062,5.188429791480303,44.97703899681916,44.879966924166894,304.3230660144628,-11.821536093255032,-7.4242615462601504,58.01516270148558,1.0,0.0,0.0,0.0,0.0,0.0
9.909999999999833,5.435299726523833,5.4353281036019325,44.86829636907284,44.871874322742336,-0.5518857920072762,-9.360850056967372,-10.732359791553824,59.530992014253435,1.0,0.0,0.0,0.0,0.0,0.0
10.009999999999831,5.209955853986674,5.209983050823212,44.87423947534442,44.802268631800125,-263.3378336052968,-6.846965479970663,-13.27969457496327,60.81828105620638,1.0,0.0,0.0,0.0,0.0,0.0
10.109999999999829,4.7664038363186805,4.766428723931313,44.41272975925266,44.37508749777211,-192.62999315510262,-4.830614070125002,-15.339331336253114,61.805957391109786,1.0,0.0,0.0,0.0,0.0,0.0
10.209999999999827,4.631918836662107,4.631943020969629,43.98023634236039,43.98272601053837,21.27385829605842,-3.720703249307322,-17.284107581744244,62.39473305487724,1.0,0.0,0.0,0.0,0.0,0.0
10.309999999999825,4.780310676945755,4.780335634946823,43.80921268583829,43.79412662293217,127.7350728951251,-4.509976371006607,-17.57708731158366,62.40956515946395,1.0,0.0,0.0,0.0,0.0,0.0
10.409999999999823,4.963563903479947,4.963589813560247,43.71938175986244,43.71667602337119,72.68288900992856,-6.492619305978968,-16.517394503640478,61.96542096862743,1.0,0.0,0.0,0.0,0.0,0.0
10.50999999999982,5.005121593307774,5.005147721618414,43.643441394117986,43.64618233941478,-20.41534534845656,-8.474678187848976,-14.928926764090363,61.17237041097474,1.0,0.0,0.0,0.0,0.0,0.0
10.609999999999818,4.915247099343198,4.915272757411003,43.55708606822333,43.55305407077363,-80.06213889973307,-9.332783071321133,-13.109487680091956,60.09577883208129,1.0,0.0,0.0,0.0,0.0,0.0
10.709999999999816,4.757073622657804,4.757098458707333,43.44584348839441,43.43630493319356,-105.84464380542539,-8.792583153647987,-10.630404334159804,58.73698958266732,1.0,0.0,0.0,0.0,0.0,0.0
10.809999999999814,4.568322471139293,4.5683463253080845,43.31902020085199,43.30530685838709,-121.50996080511985,-7.0277578021931,-7.074941162274022,57.171092401431,1.0,0.0,0.0,0.0,0.0,0.0
10.909999999999812,4.3481996368033355,4.348222333937883,43.20090111852674,43.18017334881715,-144.2467174241287,-4.276989504564007,-2.421434399210088,55.571954945084045,1.0,0.0,0.0,0.0,0.0,0.0
11.00999999999981,4.132725814310613,4.132747393101454,43.02131760589026,43.01529396721271,-87.29348509009988,-1.1839444432973978,2.5440321566265824,54.20703353291158,1.0,0.0,0.0,0.0,0.0,0.0
11.109999999999808,4.098352611284914,4.098374009132385,42.78750808394393,42.78716861133504,50.59047962057904,0.373704930189685,5.462280674251935,53.36691171710562,1.0,0.0,0.0,0.0,0.0,0.0
11.209999999999805,4.264930940054575,4.2649532072246075,42.6261610633887,42.61040543086434,126.91590111571442,0.47895973555621657,6.120849056727381,52.94081488514807,1.0,0.0,0.0,0.0,0.0,0.0
11.309999999999803,4.4525679243773,4.452591169625521,42.51585787853752,42.51087283757602,82.29005619418795,-0.18250011433657132,5.50866378664619,52.79702401144254,1.0,0.0,0.0,0.0,0.0,0.0
11.409999999999801,4.516889521001963,4.51691310107708,42.43460693064308,42.43742204821356,-0.19257983760124553,-1.0167297760185448,4.395173987756985,52.83721890092708,1.0,0.0,0.0,0.0,0.0,0.0
11.509999999999799,4.470635293357278,4.470658630132675,42.364545427073345,42.364560799489375,-49.0303040508527,-1.2446463071708278,3.249895817289414,52.91362415030195,1.0,0.0,0.0,0.0,0.0,0.0
11.609999999999797,4.37159108948164,4.371613912284374,42.29696528392531,42.29481690442591,-64.96360175943757,-0.6336913143230107,2.0146027075688706,52.95458499568441,1.0,0.0,0.0,0.0,0.0,0.0
11.709999999999795,4.285131530891675,4.285153903067112,42.21909684493919,42.2207976763221,-28.789120996768766,0.5019654837959877,0.616483837387738,52.95496935803703,1.0,0.0,0.0,0.0,0.0,0.0
11.809999999999793,4.274657072587973,4.274679388850927,42.14344281751346,42.14586593912092,13.902323384798834,1.088398916388064,-0.16023842487910692,52.97148909683664,1.0,0.0,0.0,0.0,0.0,0.0
11.90999999999979,4.3109700425818716,4.3109925501048565,42.07444000029636,42.076427195817786,24.180771578636218,0.8936155303257433,-0.20583638359745152,53.0094927789461,1.0,0.0,0.0,0.0,0.0,0.0
12.009999999999788,4.342729078851303,4.342751752585173,42.00968851692677,42.012200221577295,12.046621230545927,0.5141843265277924,0.0533299614136261,53.04073997902225,1.0,0.0,0.0,0.0,0.0,0.0
12.109999999999786,4.350310309638567,4.350333020091057,41.94680256582359,41.94947889290395,-1.95358896633126,0.37263794898909736,0.28544854376801804,53.06460960085309,1.0,0.0,0.0,0.0,0.0,0.0
12.209999999999784,4.342056241435369,4.342078909277916,41.88296549496589,41.885588488521726,-6.464745782607164,0.47603429204429976,0.3934896439943946,53.086119833044535,1.0,0.0,0.0,0.0,0.0,0.0
12.309999999999782,4.333200932500163,4.333223555237055,41.81766013712742,41.820309905437014,-3.248843635618286,0.6515600969392622,0.38909746918950333,53.10674137338841,1.0,0.0,0.0,0.0,0.0,0.0
12.40999999999978,4.332216534275144,4.332239147275686,41.75178174407031,41.7544355099244,1.7371298841245175,0.754030979431887,0.3263630867252111,53.126488226063024,1.0,0.0,0.0,0.0,0.0,0.0
12.509999999999778,4.337057799825428,4.33708044141531,41.686374028571684,41.68901653557367,3.407501860726334,0.7662976934651271,0.2701630401765894,53.144608575286576,1.0,0.0,0.0,0.0,0.0,0.0
12.609999999999776,4.34190951585019,4.341932184994221,41.62161152498293,41.624261039724146,2.148366924643319,0.751682047727369,0.24541284518979806,53.1601487216656,1.0,0.0,0.0,0.0,0.0,0.0
12.709999999999773,4.344016186337022,4.344038862735033,41.557153369829265,41.559805198827945,0.47952725087929027,0.7587437559127577,0.2446085028123407,53.172702829580345,1.0,0.0,0.0,0.0,0.0,0.0
12.809999999999771,4.344014049951401,4.344036728143692,41.4927213790665,41.495369263783765,-0.3070215451989311,0.7915429588385606,0.2548403485655802,53.18230016239804,1.0,0.0,0.0,0.0,0.0,0.0
12.90999999999977,4.34353422462586,4.343556895852089,41.42822169646522,41.43086527028496,-0.14512326910316897,0.8330544765432614,0.26688932733616705,53.1891607541326,1.0,0.0,0.0,0.0,0.0,0.0
13.009999999999767,4.34373065419063,4.343753330409527,41.363714182040404,41.36635362718334,0.3750287785802042,0.866997606042534,0.27440911220256464,53.193612909809644,1.0,0.0,0.0,0.0,0.0,0.0
13.109999999999765,4.34461972639835,4.344642408192158,41.29932491963998,41.30196051406533,0.6201383472610855,0.8893525652839599,0.27584243648491,53.196016287085264,1.0,0.0,0.0,0.0,0.0,0.0
13.209999999999763,4.345606365895069,4.345629055052996,41.235094678851034,41.23772690381958,0.5268109159829582,0.9061416498504115,0.2743914070854738,53.19666168341927,1.0,0.0,0.0,0.0,0.0,0.0
13.30999999999976,4.346323250988923,4.346345946192741,41.17099125419168,41.17362002210988,0.33607457575203004,0.9230142744192693,0.2733631076670028,53.195749966743115,1.0,0.0,0.0,0.0,0.0,0.0
13.409999999999759,4.346768703476172,4.34679140150547,41.106963158076546,41.10958819372143,0.21520496216319795,0.9412257840453897,0.27405150887352303,53.193440755287575,1.0,0.0,0.0,0.0,0.0,0.0
13.509999999999756,4.3470896852723,4.347112379968166,41.042989826167265,41.04561099403309,0.1824857569933025,0.9594338553923933,0.2762017363918384,53.1898865345965,1.0,0.0,0.0,0.0,0.0,0.0
13.609999999999754,4.347404654868779,4.347427349537611,40.97907212084527,40.98168939733856,0.19896064790470902,0.9761940140474363,0.27889986668138,53.18524448165648,1.0,0.0,0.0,0.0,0.0,0.0
13.709999999999752,4.347751194290375,4.347773890942335,40.91521847570342,40.917831883508796,0.21340766237609277,0.9909219797862353,0.28122215457764016,53.179676293858364,1.0,0.0,0.0,0.0,0.0,0.0
13.80999999999975,4.34810002455507,4.348122723400593,40.85143615200179,40.85404570983976,0.2004331656844327,1.003929079712977,0.28282861139973065,53.17333090242664,1.0,0.0,0.0,0.0,0.0,0.0
13.909999999999748,4.348409646738938,4.348432347178459,40.787720227584565,40.790325922678804,0.17006563216373838,1.0158406606504535,0.28394157615493765,53.16633384988878,1.0,0.0,0.0,0.0,0.0,0.0
14.009999999999746,4.348668062488144,4.348690763115883,40.724064191215255,40.72666599359064,0.1412485455663326,1.0270015536785608,0.28486809035526645,53.15878748929729,1.0,0.0,0.0,0.0,0.0,0.0
14.109999999999744,4.34888507382574,4.3489077761769295,40.66046703972943,40.6630649237534,0.12066494953115736,1.03743024303031,0.28577866785364175,53.15077721587871,1.0,0.0,0.0,0.0,0.0,0.0
14.209999999999742,4.349074533278207,4.349097240716219,40.59692902957132,40.59952297934372,0.10759284481101083,1.0470436924055535,0.28669749910262127,53.14237640827908,1.0,0.0,0.0,0.0,0.0,0.0
14.30999999999974,4.34924533044611,4.3492680341005325,40.53345148619766,40.53604149305437,0.09746232937872357,1.0557935657160644,0.2875499903729721,53.13364951225872,1.0,0.0,0.0,0.0,0.0,0.0
14.409999999999737,4.3493989512743845,4.3494216576218605,40.470035919301054,40.47262197657988,0.08661022035157284,1.0637178338325035,0.2882682124051673,53.12465282141258,1.0,0.0,0.0,0.0,0.0,0.0
14.509999999999735,4.349533196173462,4.349555898457766,40.40668333770699,40.4092654376297,0.07431537964047497,1.0709079232399437,0.28884134393103766,53.115434339223256,1.0,0.0,0.0,0.0,0.0,0.0
14.609999999999733,4.349646549870562,4.3496692553162575,40.34339418828644,40.345972321970066,0.061802873897325306,1.077452776265817,0.28930180722727283,53.10603407002626,1.0,0.0,0.0,0.0,0.0,0.0
14.70999999999973,4.349739833545816,4.349762547761202,40.28016866105708,40.2827428238923,0.05039606948924025,1.0834099668769133,0.28968870317590373,53.09648503219397,1.0,0.0,0.0,0.0,0.0,0.0
14.809999999999729,4.3498154032041105,4.349838107824326,40.217006957499294,40.2195771422425,0.04051283938857786,1.088810658605429,0.29002469450833746,53.086814571457445,1.0,0.0,0.0,0.0,0.0,0.0
14.909999999999727,4.349875513832084,4.349898222833872,40.15390938744513,40.156475577349106,0.03171491443362928,1.0936784569227607,0.2903150723167358,53.077045506238036,1.0,0.0,0.0,0.0,0.0,0.0
15.009999999999724,4.34992125056063,4.349943961948156,40.09087637744557,40.093438579038235,0.02322585219572293,1.0980459634733706,0.2905535159680616,53.06719697903445,1.0,0.0,0.0,0.0,0.0,0.0
15.109999999999722,4.34995320972296,4.349975921213627,40.027908087565045,40.030466296468575,0.015225995607486276,1.101953377743983,0.29073572100257555,53.05728497916924,1.0,0.0,0.0,0.0,0.0,0.0
15.20999999999972,4.349972394983667,4.349995106458664,39.96500460068478,39.9675588027383,0.007910607825416527,1.1054331312162922,0.2908714814614731,53.047322617655645,1.0,0.0,0.0,0.0,0.0,0.0
15.309999999999718,4.349979946870701,4.350002661347389,39.9021660222452,39.90471622511227,0.0012465230897484858,1.108511025135082,0.29097608391450785,53.03732050226183,1.0,0.0,0.0,0.0,0.0,0.0
15.409999999999716,4.34997682342754,4.349999535828829,39.83939241933898,39.84193862068983,-0.0049260664939287935,1.111211409402973,0.2910615091973614,53.02728718451479,1.0,0.0,0.0,0.0,0.0,0.0
15.509999999999714,4.349963731781519,4.349986437708139,39.77668382882168,39.77922601677869,-0.010728344107158172,1.1135596799069023,0.29113327484944174,53.01722962477781,1.0,0.0,0.0,0.0,0.0,0.0
15.609999999999712,4.349941255231218,4.349963966757059,39.714040272313206,39.71657845558736,-0.016178102269064354,1.1155812986628795,0.29119220967185,53.00715355455011,1.0,0.0,0.0,0.0,0.0,0.0
15.70999999999971,4.349910025955014,4.349932737648487,39.65146170209778,39.6539958796505,-0.021233685723749396,1.1172997598797023,0.29123783568042133,52.99706369082406,1.0,0.0,0.0,0.0,0.0,0.0
15.809999999999707,4.349870705459097,4.3498934134840965,39.588948053615994,39.59147821502553,-0.025885184932090688,1.1187357596950025,0.2912706564096835,52.9869639043722,1.0,0.0,0.0,0.0,0.0,0.0
15.909999999999705,4.349823951991039,4.3498466573655605,39.52649928313044,39.529025438084346,-0.03016508950447694,1.1199078776705513,0.2912925635241309,52.97685735416384,1.0,0.0,0.0,0.0,0.0,0.0
16.009999999999703,4.349770329297497,4.349793039262295,39.464115310541665,39.46663745921934,-0.03413129871618903,1.1208336020837872,0.2913060753758341,52.966746583025504,1.0,0.0,0.0,0.0,0.0,0.0
16.10999999999972,4.349707712737989,4.349730420857668,39.40179731020923,39.404315441419946,-0.04310102771178492,1.1215025776694578,0.2913119084193225,52.95663367744605,1.0,0.0,0.0,0.0,0.0,0.0
16.209999999999734,4.349625671370351,4.349648382514715,39.33954508533122,39.342059201374255,-0.05451488380146863,1.1217113057879158,0.2913060452939591,52.94652067078999,1.0,0.0,0.0,0.0,0.0,0.0
16.30999999999975,4.349528995411811,4.349551700055599,39.277356636725955,39.27986673386697,-0.060855534865478234,1.1213471356532094,0.29129974925710694,52.936409288468575,1.0,0.0,0.0,0.0,0.0,0.0
16.409999999999766,4.349423745953453,4.349446453154087,39.2152323617545,39.21773842975336,-0.06547029334679877,1.120432748045402,0.2912994053266687,52.92630086112433,1.0,0.0,0.0,0.0,0.0,0.0
16.50999999999978,4.3493102553777385,4.349332965910435,39.15317281376045,39.15567486177082,-0.07086614779769018,1.1190634335445235,0.2913001792298297,52.9161965481184,1.0,0.0,0.0,0.0,0.0,0.0
16.609999999999797,4.349187425519286,4.349210128188133,39.09117789133452,39.09367591824186,-0.07641051483687544,1.1173660418217504,0.2912963184768156,52.90609736986029,1.0,0.0,0.0,0.0,0.0,0.0
16.709999999999813,4.34905633499163,4.349079038947821,39.0292471563238,39.031741151899126,-0.08057724118512244,1.1154528401624573,0.291287060206434,52.89600417132293,1.0,0.0,0.0,0.0,0.0,0.0
16.809999999999828,4.348919893770231,4.3489426001906395,38.96738029795669,38.96987027376,-0.0828768526061685,1.113397956311188,0.2912747431407354,52.885917614601965,1.0,0.0,0.0,0.0,0.0,0.0
16.909999999999844,4.348780796759526,4.348803501576185,38.90557719075493,38.90806314980848,-0.08390283250731212,1.1112425696858734,0.291261055062762,52.87583819659263,1.0,0.0,0.0,0.0,0.0,0.0
17.00999999999986,4.348640474507343,4.348663181066513,38.843837799946456,38.84631973587608,-0.08445360701512694,1.1090116260583156,0.2912459124810936,52.86576631294734,1.0,0.0,0.0,0.0,0.0,0.0
17.109999999999875,4.348499321310456,4.348522026091814,38.782162074704054,38.78464000137192,-0.08492487200160159,1.1067253950169407,0.2912286539473567,52.85570229828461,1.0,0.0,0.0,0.0,0.0,0.0
17.20999999999989,4.348357434928391,4.3483801409602165,38.72054985498466,38.723023776242464,-0.08531510421218691,1.104401875473104,0.2912092922383314,52.8456464104385,1.0,0.0,0.0,0.0,0.0,0.0
17.309999999999906,4.3482150499840335,4.348237745463848,38.659000944886905,38.66147085472383,-0.08551668885998787,1.1020550203479702,0.2911885641503752,52.83559884623092,1.0,0.0,0.0,0.0,0.0,0.0
17.409999999999922,4.348072502118415,4.348095200955868,38.59751518642309,38.59998109904732,-0.08551118960447024,1.0996938051146974,0.29116729335210856,52.825559765981914,1.0,0.0,0.0,0.0,0.0,0.0
17.509999999999938,4.347930078092824,4.347952783107758,38.53609240982967,38.53855432955522,-0.08536919283921751,1.0973234277437873,0.29114585418797495,52.815529290057576,1.0,0.0,0.0,0.0,0.0,0.0
17.609999999999953,4.3477879603917335,4.347810659557581,38.47473245246538,38.47719037375177,-0.08517291117553505,1.0949471779778635,0.29112419394475947,52.80550752476038,1.0,0.0,0.0,0.0,0.0,0.0
17.70999999999997,4.347646188118933,4.347668882459402,38.41343517630987,38.41588911350286,-0.08496150520689749,1.0925676483431246,0.2911021361177239,52.795494580086476,1.0,0.0,0.0,0.0,0.0,0.0
17.809999999999985,4.3475047612744,4.347527459263802,38.35220040612327,38.35465036359115,-0.08473611031687867,1.0901870225101984,0.29107960864133714,52.785490549242084,1.0,0.0,0.0,0.0,0.0,0.0
17.91,4.347363741772519,4.347386438399553,38.29102796296088,38.29347393527983,-0.08448588738926066,1.0878069246190072,0.29105671436374375,52.77549551980308,1.0,0.0,0.0,0.0,0.0,0.0
18.010000000000016,4.347223162199788,4.34724585339427,38.229917700240065,38.232359701668464,-0.08421537159712056,1.0854283911529223,0.2910336055000421,52.76550958615061,1.0,0.0,0.0,0.0,0.0,0.0
18.11000000000003,4.347083035590784,4.347105730324984,38.168869443248994,38.17130747819168,-0.08393336482655833,1.0830520649241313,0.291010385948056,52.75553283046842,1.0,0.0,0.0,0.0,0.0,0.0
18.210000000000047,4.34694338149742,4.346966080367565,38.10788301701307,38.11031708013885,-0.08364364549358072,1.0806783832020799,0.29098708913656274,52.74556533614589,1.0,0.0,0.0,0.0,0.0,0.0
18.310000000000063,4.346804222730249,4.346826918423176,38.0469582765174,38.04938838198216,-0.08335107149747056,1.0783076622885672,0.2909636952837365,52.73560720012151,1.0,0.0,0.0,0.0,0.0,0.0
18.41000000000008,4.3466655495133075,4.346688244491816,37.986095047950336,37.988521200127586,-0.08305896440103933,1.075940143078992,0.2909401916528836,52.72565851127204,1.0,0.0,0.0,0.0,0.0,0.0
18.510000000000094,4.346527358587918,4.346550051122904,37.92529315696847,37.92771535059508,-0.08276547082365138,1.0735760253990358,0.2909165628228861,52.71571936133424,1.0,0.0,0.0,0.0,0.0,0.0
18.61000000000011,4.346389659730045,4.346412353217602,37.8645524583889,37.86697070748413,-0.08246917358457395,1.0712154382122168,0.29089281633960734,52.70578985531033,1.0,0.0,0.0,0.0,0.0,0.0
18.710000000000125,4.346252459456976,4.346275147050619,37.80387278000796,37.806287088910864,-0.08217459298720531,1.0688584505843755,0.2908689674803829,52.695870089563336,1.0,0.0,0.0,0.0,0.0,0.0
18.81000000000014,4.346115744734101,4.346138436347246,37.74325394926706,37.74566431280267,-0.08188087173191416,1.0665051324928032,0.2908450269612339,52.685960162667755,1.0,0.0,0.0,0.0,0.0,0.0
18.910000000000156,4.345979522078706,4.346002213656902,37.682695822045424,37.68510225407841,-0.08158553902046783,1.0641555257058615,0.2908209948708437,52.67606018615245,1.0,0.0,0.0,0.0,0.0,0.0
19.010000000000172,4.345843791490786,4.345866486430168,37.62219822739536,37.62460073224053,-0.08129177832356671,1.0618096435977158,0.2907968780208625,52.666170262688475,1.0,0.0,0.0,0.0,0.0,0.0
19.110000000000188,4.345708552970348,4.345731243491173,37.56176099442962,37.564159566960214,-0.08099939118244137,1.05946750894985,0.2907726740111804,52.6562904967832,1.0,0.0,0.0,0.0,0.0,0.0
19.210000000000203,4.345573800000059,4.345596484839916,37.501383980589516,37.503778634545206,-0.08070676500932183,1.0571291412606068,0.29074837189231895,52.64642100527597,1.0,0.0,0.0,0.0,0.0,0.0
19.31000000000022,4.345439532579924,4.345462217926979,37.44106701626701,37.4434577559137,-0.08041579261285126,1.0547945451300027,0.2907239677749698,52.63656189570432,1.0,0.0,0.0,0.0,0.0,0.0
19.410000000000235,4.3453057409339735,4.3453284278512,37.38080993150251,37.3831967517825,-0.0801239873509374,1.0524637280057583,0.29069946613614067,52.62671327664455,1.0,0.0,0.0,0.0,0.0,0.0
19.51000000000025,4.345172444614115,4.345195133239031,37.32061258603328,37.32299550054749,-0.07983482731703351,1.0501366808726418,0.2906748620276437,52.616875268205696,1.0,0.0,0.0,0.0,0.0,0.0
19.610000000000266,4.345039633844389,4.34506231546402,37.26047481139526,37.26285382436548,-0.07954735610220087,1.0478134128381515,0.2906501613667148,52.60704798057782,1.0,0.0,0.0,0.0,0.0,0.0
19.71000000000028,4.3449072890728635,4.344929974526167,37.20039643986388,37.202771546311375,-0.0792618172308801,1.0454939419662292,0.2906253663518806,52.597231524507386,1.0,0.0,0.0,0.0,0.0,0.0
19.810000000000297,4.3447754233341565,4.344798110425472,37.140377330523656,37.14274854389365,-0.07897337741619381,1.0431782675462749,0.2906004660855973,52.58742602185486,1.0,0.0,0.0,0.0,0.0,0.0
19.910000000000313,4.344644039886908,4.3446667194366455,37.080417317281295,37.082784641763425,-0.07868659255965138,1.0408663653740935,0.2905754689982919,52.57763158428307,1.0,0.0,0.0,0.0,0.0,0.0
20.01000000000033,4.344513128955139,4.344535812735558,37.020516234396325,37.02287966508491,-0.0784034357723673,1.03855822969441,0.29055037718498383,52.567848323548105,1.0,0.0,0.0,0.0,0.0,0.0
20.110000000000344,4.344382693797515,4.344405375421047,36.960673943127844,36.96303349332811,-0.07812203439114374,1.0362538869156444,0.29052518527798,52.5580763621126,1.0,0.0,0.0,0.0,0.0,0.0
20.21000000000036,4.344252721379406,4.344275400042534,36.90089027759316,36.90324595144888,-0.0778403721510923,1.0339533496180944,0.29049989089453426,52.548315812053715,1.0,0.0,0.0,0.0,0.0,0.0
20.310000000000375,4.344123221476773,4.344145905226469,36.84116507293248,36.84351686560608,-0.07755891623249411,1.0316566100901512,0.2904744928586515,52.53856678548615,1.0,0.0,0.0,0.0,0.0,0.0
20.41000000000039,4.343994190830951,4.344016872346401,36.781498192401266,36.783846117050096,-0.07728010578323286,1.0293636598887888,0.29044899654713846,52.5288294046453,1.0,0.0,0.0,0.0,0.0,0.0
20.510000000000407,4.343865622924623,4.343888305127621,36.72188947131966,36.724233532067245,-0.07700060345365856,1.027074497673577,0.2904234002710382,52.51910378132196,1.0,0.0,0.0,0.0,0.0,0.0
20.610000000000422,4.343737521016448,4.343760196119547,36.66233874701182,36.66467893907959,-0.07672347689322567,1.0247891147638066,0.29039771164894085,52.50939002702685,1.0,0.0,0.0,0.0,0.0,0.0
20.710000000000438,4.343609878589107,4.343632556498051,36.60284588274698,36.60518221914905,-0.07644662486328446,1.022507513095936,0.2903719308245427,52.499688263305245,1.0,0.0,0.0,0.0,0.0,0.0
20.810000000000453,4.343482698901247,4.343505371361971,36.5434107163552,36.54574320117721,-0.07617128756316482,1.0202296877812564,0.2903460543838585,52.48999860123256,1.0,0.0,0.0,0.0,0.0,0.0
20.91000000000047,4.3433559754355535,4.343378651887178,36.4840330857802,36.48636171432794,-0.07589673213667769,1.0179556405999122,0.2903200802719472,52.480321151615414,1.0,0.0,0.0,0.0,0.0,0.0
21.010000000000485,4.3432297081920215,4.343252383172512,36.42471285592274,36.42703764106522,-0.07562286771373827,1.0156853724239714,0.29029401368122093,52.47065603506167,1.0,0.0,0.0,0.0,0.0,0.0
21.1100000000005,4.343103900429303,4.343126576393843,36.36544986585703,36.36777081162967,-0.07535027765502633,1.0134188779600375,0.29026785437739877,52.46100336159236,1.0,0.0,0.0,0.0,0.0,0.0
21.210000000000516,4.342978542371432,4.343001212924719,36.30624395539585,36.30856105718155,-0.07507970819688126,1.011156163305509,0.29024159563711066,52.451363240972064,1.0,0.0,0.0,0.0,0.0,0.0
21.31000000000053,4.342853630759741,4.342876303941011,36.24709498977875,36.24940826029242,-0.07480821420973616,1.0088972312766957,0.29021524227001494,52.441735792606806,1.0,0.0,0.0,0.0,0.0,0.0
21.410000000000547,4.342729175370193,4.34275184571743,36.188002809710746,36.190312252972674,-0.07453751769193495,1.0066420659093094,0.2901888068556969,52.4321211251892,1.0,0.0,0.0,0.0,0.0,0.0
21.510000000000563,4.342605169685471,4.342627838253975,36.128967256374644,36.13127286783299,-0.07426851972695214,1.0043906598430934,0.29016228396664534,52.42251934705449,1.0,0.0,0.0,0.0,0.0,0.0
21.61000000000058,4.342481610446914,4.342504281550646,36.0699881973293,36.07228998956267,-0.07400266674985279,1.0021430269148477,0.29013566769868243,52.41293057627696,1.0,0.0,0.0,0.0,0.0,0.0
21.710000000000594,4.342358491137214,4.342381160706282,36.01106547393561,36.01336345091997,-0.07373766008702543,0.9998991823192885,0.2901089632194757,52.40335492031701,1.0,0.0,0.0,0.0,0.0,0.0
21.81000000000061,4.342235815015022,4.342258486896753,35.952198681893876,35.954492839129244,-0.07347384297389681,0.9976591463466365,0.29008217454296265,52.39379248380051,1.0,0.0,0.0,0.0,0.0,0.0
21.910000000000625,4.342113575563031,4.3421362452209,35.89338668969709,35.895677039535265,-0.07321663049622007,0.9954234172959114,0.2900553022167632,52.38424332980277,1.0,0.0,0.0,0.0,0.0,0.0
22.01000000000064,4.341991763005269,4.34201442822814,35.83462925562255,35.83691580191393,-0.07295633311341199,0.9931925011114012,0.2900283622709689,52.37470746601459,1.0,0.0,0.0,0.0,0.0,0.0
22.110000000000657,4.341870393634992,4.341893061995506,35.77592623361598,35.778208971880346,-0.0726860120655326,0.9909663792636968,0.2900013746519263,52.365184905701284,1.0,0.0,0.0,0.0,0.0,0.0
22.210000000000672,4.341749477228142,4.341772146522999,35.71727750563494,35.71955644809027,-0.07241179942075515,0.9887447585891216,0.28997436854467046,52.35567567966505,1.0,0.0,0.0,0.0,0.0,0.0
22.310000000000688,4.341629013784716,4.3416516818106174,35.65868292986833,35.660958080343505,-0.07214182323168394,0.9865273347014618,0.2899473552337635,52.34617981660417,1.0,0.0,0.0,0.0,0.0,0.0
22.410000000000704,4.341509000046063,4.341531664133072,35.60014236352171,35.60241371761453,-0.07187669734994184,0.9843139077776464,0.289920330202428,52.336697352976024,1.0,0.0,0.0,0.0,0.0,0.0
22.51000000000072,4.341389426236216,4.341412086039782,35.54165568908801,35.54392325887238,-0.07161747647550953,0.9821043774398047,0.2898932915576656,52.327228342101876,1.0,0.0,0.0,0.0,0.0,0.0
22.610000000000735,4.341270276061909,4.341292940080166,35.48322276404698,35.48548655331229,-0.07136256911523642,0.979898695780749,0.28986624915332737,52.3177728338155,1.0,0.0,0.0,0.0,0.0,0.0
22.71000000000075,4.341151546264491,4.341174211353064,35.42484344568028,35.427103450088325,-0.07110791894239465,0.977696847338789,0.28983919985848117,52.308330883918444,1.0,0.0,0.0,0.0,0.0,0.0
22.810000000000766,4.341033246619913,4.341055911034346,35.36651761661342,35.368773848082995,-0.07085340285149844,0.9754987939131313,0.2898121361149972,52.29890256329711,1.0,0.0,0.0,0.0,0.0,0.0
22.91000000000078,4.340915370610867,4.340938035398722,35.308245135304524,35.310497597605796,-0.07059874198378502,0.9733044833181131,0.28978505985226904,52.28948793777216,1.0,0.0,0.0,0.0,0.0,0.0
23.010000000000797,4.340797921495994,4.3408205807209015,35.25002586130013,35.25227455017182,-0.07034552615085676,0.9711138774570963,0.28975796402457815,52.28008707740624,1.0,0.0,0.0,0.0,0.0,0.0
23.110000000000813,4.3406808862406825,4.340703543275595,35.191859678008754,35.19410460522442,-0.07009278712965195,0.9689269557535066,0.2897308285853037,52.270700065761105,1.0,0.0,0.0,0.0,0.0,0.0
23.21000000000083,4.340564274620876,4.340586934238672,35.13374644584147,35.13598761514549,-0.0698428510402671,0.9667437088456577,0.2897036452090144,52.26132698001026,1.0,0.0,0.0,0.0,0.0,0.0
23.310000000000844,4.340448076860627,4.340470734983683,35.075686024992706,35.07792343220042,-0.06959407056516653,0.9645641447166469,0.28967641597762406,52.25196789993189,1.0,0.0,0.0,0.0,0.0,0.0
23.41000000000086,4.340332292959924,4.340354945510626,35.01767829986999,35.01991195662057,-0.06934631631595689,0.9623882724053807,0.2896491489306144,52.242622917008596,1.0,0.0,0.0,0.0,0.0,0.0
23.510000000000876,4.340216916401447,4.340239580720663,34.95972313170483,34.961953041701726,-0.06910036648650753,0.9602160849481669,0.28962183955215004,52.23329211529664,1.0,0.0,0.0,0.0,0.0,0.0
23.61000000000089,4.340101953702512,4.3401246182620525,34.90182038121635,34.90404654035617,-0.06885267637106951,0.958047579375471,0.28959448092021567,52.223975580709784,1.0,0.0,0.0,0.0,0.0,0.0
23.710000000000907,4.339987408121758,4.340010069310665,34.8439699345406,34.846192354320955,-0.06860729548747724,0.9558827411700836,0.2895670731307032,52.21467341001914,1.0,0.0,0.0,0.0,0.0,0.0
23.810000000000922,4.339873269883219,4.339895930141211,34.7861716536314,34.78839033772255,-0.06836297123410828,0.9537215685155791,0.2895396122762953,52.20538569179013,1.0,0.0,0.0,0.0,0.0,0.0
23.910000000000938,4.33975953572825,4.339782193303108,34.72842540130933,34.73064034569463,-0.06811987341196257,0.9515640686969639,0.28951209883646667,52.19611251565318,1.0,0.0,0.0,0.0,0.0,0.0
24.010000000000954,4.339646199139529,4.339668855071068,34.67073106286242,34.672942278887405,-0.06787501744094371,0.9494102390733553,0.28948453520534173,52.18685398132662,1.0,0.0,0.0,0.0,0.0,0.0
24.11000000000097,4.339533276410316,4.339555934071541,34.613088502636785,34.6152959939547,-0.06763345643220786,0.9472600594094771,0.28945692194881645,52.17761017985584,1.0,0.0,0.0,0.0,0.0,0.0
24.210000000000985,4.339420757764649,4.339443415403366,34.5554975839878,34.55770134664964,-0.06739252347762736,0.9451135348485629,0.28942924502277595,52.16838120302644,1.0,0.0,0.0,0.0,0.0,0.0
24.310000000001,4.339308636685217,4.339331295341253,34.49795819405026,34.500158239282825,-0.06715336807552541,0.9429706713101795,0.28940150495658573,52.15916715222778,1.0,0.0,0.0,0.0,0.0,0.0
24.410000000001016,4.339196913172024,4.339219570159912,34.44047019701164,34.44266652841439,-0.06691470683812595,0.9408314830183958,0.28937370996140277,52.14996811971358,1.0,0.0,0.0,0.0,0.0,0.0
24.510000000001032,4.33908559048371,4.339108239859343,34.38303345698699,34.38522607070249,-0.06667386876805237,0.9386959569437218,0.2893458677404721,52.14078419784222,1.0,0.0,0.0,0.0,0.0,0.0
24.610000000001047,4.338974662102958,4.338997315615416,34.325647862595446,34.3278367696966,-0.06643558642702052,0.9365640757092578,0.2893179638075409,52.13161548845415,1.0,0.0,0.0,0.0,0.0,0.0
24.710000000001063,4.338864134547077,4.33888678625226,34.268313279423225,34.27049848349084,-0.06619984791020661,0.9344358399378262,0.2892900040065969,52.12246208417082,1.0,0.0,0.0,0.0,0.0,0.0
24.81000000000108,4.338753994781454,4.338776648044586,34.21102957314802,34.213211070408384,-0.06596493115589741,0.9323112643437881,0.28926198843673806,52.11332407755402,1.0,0.0,0.0,0.0,0.0,0.0
24.910000000001094,4.338644246064732,4.338666897267103,34.15379663155245,34.15597443293763,-0.06572857505194207,0.9301903552713428,0.289233927356228,52.10420156997702,1.0,0.0,0.0,0.0,0.0,0.0
25.01000000000111,4.338534898172861,4.338557552546263,34.09661432211229,34.09878843117428,-0.06549539039659713,0.9280730947616053,0.2892058117168692,52.09509465376098,1.0,0.0,0.0,0.0,0.0,0.0
25.110000000001126,4.338425931553934,4.338448580354452,34.0394825115575,34.04165292458938,-0.06526295778493285,0.9259594952048805,0.2891776336675508,52.08600342112054,1.0,0.0,0.0,0.0,0.0,0.0
25.21000000000114,4.338317355983896,4.338340003043413,33.98240108853285,33.98456781633799,-0.06503002434516958,0.9238495603484239,0.28914939243866594,52.07692797301152,1.0,0.0,0.0,0.0,0.0,0.0
25.310000000001157,4.338209164945427,4.3382318168878555,33.92536992090547,33.92753296700636,-0.06479785086897838,0.9217432769419607,0.2891211052552764,52.067868400754435,1.0,0.0,0.0,0.0,0.0,0.0
25.410000000001173,4.338101361697193,4.338124010711908,33.86838887672644,33.87054823748906,-0.06456657690088852,0.9196406298772533,0.28909277317987125,52.058824795478515,1.0,0.0,0.0,0.0,0.0,0.0
25.510000000001188,4.33799394298052,4.338016588240862,33.81145784587873,33.81361353198709,-0.0643364722865325,0.9175416245266973,0.2890643912203094,52.04979725689139,1.0,0.0,0.0,0.0,0.0,0.0
25.610000000001204,4.337886902278111,4.3379095532000065,33.75457669718195,33.756728712111475,-0.06410813419900796,0.9154462607410027,0.289035959094725,52.04078587548483,1.0,0.0,0.0,0.0,0.0,0.0
25.71000000000122,4.337780249365919,4.337802894413471,33.69774529934279,33.69989363955558,-0.06387963327793678,0.9133545490087904,0.2890074750514053,52.03179074139046,1.0,0.0,0.0,0.0,0.0,0.0
25.810000000001235,4.337673967950667,4.337696615606546,33.64096354348264,33.64310821949986,-0.06365385420808334,0.9112664873352155,0.28897893777015876,52.022811953095655,1.0,0.0,0.0,0.0,0.0,0.0
25.91000000000125,4.337568074325628,4.337590720504522,33.58423129831515,33.58637231361407,-0.06342650232982638,0.9091820749819116,0.2889503519486526,52.01384959975025,1.0,0.0,0.0,0.0,0.0,0.0
26.010000000001266,4.337462552197513,4.337485201656818,33.52754843450284,33.52968578561187,-0.06320038383800908,0.9071013033199845,0.2889217088710453,52.00490377022724,1.0,0.0,0.0,0.0,0.0,0.0
26.110000000001282,4.337357411342301,4.337380051612854,33.47091484326733,33.47304854056068,-0.06297532496153391,0.9050241709785346,0.28889302831166414,51.99597456129669,1.0,0.0,0.0,0.0,0.0,0.0
26.210000000001298,4.337252635466703,4.3372752815485,33.41433039537887,33.41646044231025,-0.06275195149643586,0.9029506720720231,0.28886430910353833,51.98706206058164,1.0,0.0,0.0,0.0,0.0,0.0
26.310000000001313,4.337148240863994,4.337170887738466,33.35779496148174,33.35992135465517,-0.06252778592076735,0.9008808130212995,0.28883554202312867,51.978166355453745,1.0,0.0,0.0,0.0,0.0,0.0
26.41000000000133,4.337044207982242,4.337066855281591,33.30130843389595,33.30343118356377,-0.06230512233483143,0.8988145916864342,0.28880672466436574,51.969287541355556,1.0,0.0,0.0,0.0,0.0,0.0
26.510000000001344,4.336940556373367,4.336963195353746,33.24487068387984,33.246989793454006,-0.06208240072260507,0.8967519981310144,0.2887778761823753,51.9604257043265,1.0,0.0,0.0,0.0,0.0,0.0
26.61000000000136,4.336837269744094,4.336859907954931,33.18848158430112,33.19059705048249,-0.06186242860318547,0.8946930308702958,0.28874899047869323,51.95158093000336,1.0,0.0,0.0,0.0,0.0,0.0
26.710000000001376,4.336734348094421,4.336756989359856,33.13214102762799,33.134252860518046,-0.06164444425597937,0.89263770657616,0.28872005444052523,51.94275331224319,1.0,0.0,0.0,0.0,0.0,0.0
26.81000000000139,4.336631794683002,4.336654435843229,33.07584888582632,33.07795708881378,-0.061425109521104915,0.890586033628415,0.28869108047180797,51.93394293558681,1.0,0.0,0.0,0.0,0.0,0.0
26.910000000001407,4.336529602992529,4.336552239954472,33.019605033813995,33.02170960586658,-0.06120361451100509,0.8885379949803588,0.28866207113371795,51.92514988499934,1.0,0.0,0.0,0.0,0.0,0.0
27.010000000001423,4.336427779540291,4.336450420320034,32.963409363694346,32.96551031477039,-0.060985448127179875,0.8864935590532778,0.2886330201870621,51.91637425149934,1.0,0.0,0.0,0.0,0.0,0.0
27.11000000000144,4.33632632432629,4.336348962038755,32.90726174030826,32.90935906504685,-0.06076907794420938,0.8844527336264325,0.2886039234126785,51.90761611442266,1.0,0.0,0.0,0.0,0.0,0.0
27.210000000001454,4.336225214539956,4.336247853934765,32.85116206139442,32.85325577183536,-0.06055300185314971,0.8824155398399126,0.28857478625044747,51.89887556631027,1.0,0.0,0.0,0.0,0.0,0.0
27.31000000000147,4.336124472991857,4.336147110909224,32.79511019048987,32.79720028135334,-0.06033769708530201,0.8803819791014253,0.2885456238519736,51.89015268416136,1.0,0.0,0.0,0.0,0.0,0.0
27.410000000001485,4.3360240866473685,4.336046725511551,32.73910602581355,32.741192509024906,-0.06012237140968546,0.878352041876992,0.2885164347357345,51.88144755913521,1.0,0.0,0.0,0.0,0.0,0.0
27.5100000000015,4.335924068541104,4.3359467051923275,32.683149432022724,32.68523230239631,-0.059909059420313326,0.876325714032446,0.28848721396475396,51.87276026734703,1.0,0.0,0.0,0.0,0.0,0.0
27.610000000001516,4.335824395862485,4.335847031325102,32.62724030799126,32.629319577327436,-0.05969710931908345,0.8743030075908181,0.2884579597188999,51.864090898874935,1.0,0.0,0.0,0.0,0.0,0.0
27.710000000001532,4.335725071870172,4.335747707635164,32.57137851813353,32.57345418130013,-0.05948400741438098,0.8722839378612652,0.28842867064475936,51.85543952871169,1.0,0.0,0.0,0.0,0.0,0.0
27.810000000001548,4.33562611285741,4.335648749023676,32.51556396176025,32.517636030481185,-0.05927124657407523,0.8702684830831828,0.28839934812165324,51.8468062456671,1.0,0.0,0.0,0.0,0.0,0.0
27.910000000001563,4.335527502530941,4.335550136864185,32.4597965050546,32.461864974268615,-0.059060016604099985,0.8682566340531978,0.2883699977435714,51.838191123478545,1.0,0.0,0.0,0.0,0.0,0.0
28.01000000000158,4.335429240890761,4.335451874881983,32.40407604755294,32.406140928854455,-0.05885025696384272,0.8662483940083092,0.2883406180455192,51.82959424961069,1.0,0.0,0.0,0.0,0.0,0.0
28.110000000001595,4.335331331195509,4.335353966802359,32.34840245577258,32.350463744181894,-0.058641670302646,0.8642437662003613,0.28831120863718174,51.82101569672309,1.0,0.0,0.0,0.0,0.0,0.0
28.21000000000161,4.335233773445197,4.335256401449442,32.29277562948672,32.29483333648453,-0.05843360896769845,0.862242755314812,0.28828177712137004,51.81245555091314,1.0,0.0,0.0,0.0,0.0,0.0
28.310000000001626,4.335136554605199,4.335159186273813,32.2371954363124,32.23924955700452,-0.058227061987465856,0.860245363355382,0.28825233009831774,51.80391388348146,1.0,0.0,0.0,0.0,0.0,0.0
28.41000000000164,4.335039687710124,4.335062317550182,32.18166177579188,32.183712321547,-0.058019238924333916,0.8582515884655535,0.28822285730661545,51.795390779402624,1.0,0.0,0.0,0.0,0.0,0.0
28.510000000001657,4.334943159725366,4.334965787827969,32.12617451681214,32.128221482803944,-0.05781368166088319,0.8562614194501135,0.2881933571480114,51.78688630901808,1.0,0.0,0.0,0.0,0.0,0.0
28.610000000001673,4.334846973909562,4.334869608283043,32.070733558967625,32.07277695645426,-0.057606245392867184,0.8542748535885376,0.2881638303713624,51.77840055596547,1.0,0.0,0.0,0.0,0.0,0.0
28.71000000000169,4.334751133521362,4.334773760288954,32.015338772020456,32.01737859625824,-0.057401247195010274,0.8522918719412839,0.2881342774242023,51.769933589376755,1.0,0.0,0.0,0.0,0.0,0.0
28.810000000001704,4.3346556353021155,4.334678266197443,31.95999005673106,31.962026318851446,-0.05719732990813409,0.8503124822124979,0.2881047117935017,51.761485491349035,1.0,0.0,0.0,0.0,0.0,0.0
28.91000000000172,4.334560475993173,4.334583103656769,31.904687282618244,31.906719977972344,-0.056994448652145646,0.8483366882726365,0.2880751306949596,51.75305632971396,1.0,0.0,0.0,0.0,0.0,0.0
29.010000000001735,4.33446565559451,4.334488283842802,31.849430350872872,31.851459490485464,-0.05679190000451806,0.8463644963692544,0.28804553757113993,51.744646185344756,1.0,0.0,0.0,0.0,0.0,0.0
29.11000000000175,4.3343711610715285,4.334393795579672,31.79421913215157,31.79624471142443,-0.05659101931865251,0.8443959056241074,0.288015925143002,51.73625512501577,1.0,0.0,0.0,0.0,0.0,0.0
29.210000000001767,4.334277015234795,4.3342996425926685,31.739053527703092,31.741075557551795,-0.05639017198513452,0.8424309183215084,0.28798628997015274,51.72788322843444,1.0,0.0,0.0,0.0,0.0,0.0
29.310000000001782,4.334183201791033,4.334205828607082,31.683933408238833,31.685951884160545,-0.05618816165695595,0.8404695263036147,0.2879566370193372,51.71953056108658,1.0,0.0,0.0,0.0,0.0,0.0
29.410000000001798,4.334089717481593,4.334112346172333,31.628858676516632,31.630873609318858,-0.05598844683421644,0.8385117147271823,0.28792697269166523,51.71119720117892,1.0,0.0,0.0,0.0,0.0,0.0
29.510000000001813,4.333996572082422,4.33401919901371,31.573829204194883,31.575840589442493,-0.05579035358980189,0.836557487266009,0.2878972921072833,51.70288321298284,1.0,0.0,0.0,0.0,0.0,0.0
29.61000000000183,4.333903749300262,4.3339263796806335,31.518844893420354,31.520852741801136,-0.05559259429771979,0.8346068489167497,0.2878675976445353,51.69458867345023,1.0,0.0,0.0,0.0,0.0,0.0
29.710000000001845,4.333811262169715,4.333833895623684,31.46390561669762,31.465909923850536,-0.05539541526733638,0.8326598071895697,0.2878378878102413,51.68631364564616,1.0,0.0,0.0,0.0,0.0,0.0
29.81000000000186,4.3337191009148235,4.33374172821641,31.409011276578788,31.411012053096325,-0.05519832611288633,0.8307163549979386,0.28780817537620673,51.67805820500597,1.0,0.0,0.0,0.0,0.0,0.0
29.910000000001876,4.33362727205289,4.333649896085262,31.354161746030876,31.35615898762831,-0.055000601489312295,0.8287764764619243,0.28777845409977504,51.66982241333049,1.0,0.0,0.0,0.0,0.0,0.0
30.01000000000189,4.333535762549292,4.333558388054371,31.29935692856833,31.30135064571895,-0.05480450322355335,0.8268401635889884,0.28774872423489134,51.66160634487953,1.0,0.0,0.0,0.0,0.0,0.0
30.110000000001907,4.33324514951836,4.333267774432898,31.244272070083124,31.246261897814982,-0.4017499821559012,0.8303882527604868,0.28764393644322955,51.653425658120526,1.0,0.0,0.0,0.0,0.0,0.0
30.210000000001923,4.332385054759584,4.332407675683498,31.189021269540007,31.191007028481422,-0.5146612686548102,0.8476450371753829,0.28734720667716684,51.64532534925596,1.0,0.0,0.0,0.0,0.0,0.0
30.31000000000194,4.331812962791705,4.331835575401783,31.133702291168092,31.135684664223994,-0.13165452648258524,0.8644078863510339,0.2874896299379219,51.63729425038652,1.0,0.0,0.0,0.0,0.0,0.0
30.410000000001954,4.3319307075661655,4.331953328102827,31.07841002385696,31.080388880440918,0.22524558766240155,0.8724372648512314,0.28795801211661404,51.62932274284161,1.0,0.0,0.0,0.0,0.0,0.0
30.51000000000197,4.332376578889961,4.332399196922779,31.023220654305074,31.025196170049846,0.26360308830282175,0.8738394237893693,0.28807892816511693,51.621415307138165,1.0,0.0,0.0,0.0,0.0,0.0
30.610000000001985,4.332712982381432,4.332735601812601,30.968120876615032,30.970093126631767,0.12913989596033515,0.8745516033541716,0.2877454311571794,51.613575929253095,1.0,0.0,0.0,0.0,0.0,0.0
30.710000000002,4.33281475653995,4.332837380468845,30.91307742075745,30.915046239020715,0.0032703603984218788,0.8773847814177701,0.28729093173350806,51.60579978472139,1.0,0.0,0.0,0.0,0.0,0.0
30.810000000002017,4.33276576599187,4.33278838917613,30.858072604575373,30.86003790269862,-0.047208792169968206,0.8819396639923401,0.2869679899607075,51.59807797203765,1.0,0.0,0.0,0.0,0.0,0.0
30.910000000002032,4.332700342080756,4.332722961902618,30.803100541278283,30.805062312251554,-0.022606425897222504,0.8866672838685485,0.28690648236919514,51.59040174290882,1.0,0.0,0.0,0.0,0.0,0.0
31.010000000002048,4.3327016227526345,4.332724247127771,30.748168965897758,30.750127246924396,0.02247130581164214,0.8902747249569235,0.2870362107440503,51.58276566097507,1.0,0.0,0.0,0.0,0.0,0.0
31.110000000002064,4.332757642243216,4.332780260592699,30.693288695466563,30.69524351235534,0.03791235670266957,0.8926029414771349,0.287158499419609,51.57516871555805,1.0,0.0,0.0,0.0,0.0,0.0
